{
	"hospital":[
		{
			"name": "重庆医科大学附属第一医院"
			,"address": "重庆市渝中区袁家岗友谊路1号"
			,"loc": {"lng": 106.512768, "lat": 29.530679}
			,"org_code": "04110204"
		}
		,{
			"name": "重庆医科大学附属第二医院"
			,"address": "重庆市渝中区临江路74号"
			,"loc": {"lng": 106.574706, "lat": 29.560194}
			,"org_code": "04120207"
		}
		,{
			"name": "川大华西医院"
			,"address": "四川省成都市武侯区国学巷37号"
			,"loc": {"lng": 107.739916, "lat": 29.869675}
			,"org_code": "04270201"
		}
		,{
			"name": "成都市第三人民医院"
			,"address": "四川省成都市青龙街82号"
			,"loc": {"lng": 104.062826, "lat": 30.668712}
			,"org_code": "04220801"
		}
		,{
			"name": "北京协和医院"
			,"address": "北京市东城区帅府园1号"
			,"loc": {"lng": 116.415743, "lat": 39.912702}
			,"org_code": "01110003"
		}
		,{
			"name": "北京积水潭医院"
			,"address": "北京市西城区新街口东街31号"
			,"loc": {"lng": 116.375505, "lat": 39.944249}
			,"org_code": "02110001"
		}
		,{
			"name": "上海长征医院"
			,"address": "上海凤阳路415号"
			,"loc": {"lng": 121.467565, "lat": 31.232211}
			,"org_code": "03120201"
		}
		,{
			"name": "复旦大学附属中山医院"
			,"address": "上海市徐汇区枫林路180号"
			,"loc": {"lng": 121.453841, "lat": 31.197755}
			,"org_code": "03110101"
		}
	]
	,"med_insurance":[
		// {
		// 	"name": "上海市医疗保障局"
		// 	,"address": "上海市世博村路139号"
		// 	,"loc": {"lng": 121.50651, "lat": 31.198165}
		// 	,"org_code": "210001"
		// }
		// ,{
		// 	"name": "北京市医疗保障局"
		// 	,"address": "北京市西城区永定门西街5号"
		// 	,"loc": {"lng": 116.30878, "lat": 39.88142}
		// 	,"org_code": "100011"
		// }
		// ,{
		// 	"name": "成都市医疗保障局"
		// 	,"address": "成都市高新区锦晖西一街66号"
		// 	,"loc": {"lng": 104.065037, "lat": 30.586536}
		// 	,"org_code": "280002"
		// }
		// ,{
		// 	"name": "重庆市医疗保障局"
		// 	,"address": "重庆市渝北区青松路31号"
		// 	,"loc": {"lng": 106.511688, "lat": 29.613379}
		// 	,"org_code": "230021"
		// }
		{
			"name": "昆明市医疗保障局"
			,"address": "昆明市市级行政中心2号楼2楼"
			,"loc": {"lng": 102.833788, "lat": 24.877145}
			,"org_code": "871011"
		}
		,{
			"name": "贵阳市医疗保障局"
			,"address": "贵阳市行政中心市政府大楼B区四楼"
			,"loc": {"lng": 106.632509, "lat": 26.645907}
			,"org_code": "851001"
		}
		,{
			"name": "长沙市医疗保障局"
			,"address": "长沙市天心区银杏路6号"
			,"loc": {"lng": 112.984033, "lat": 28.125797}
			,"org_code": "731021"
		}
	]
}